[
  {
    "Folio": "10610-001",
    "Name": "STATION SERVICE DUMAINE INC.",
    "Longitude": "-73.6214098",
    "Latitude": "45.5689431",
    "District": "30"
  },
  {
    "Folio": "10671-001",
    "Name": "IDEAL ALIGNEMENT INC.",
    "Longitude": "-73.6176624",
    "Latitude": "45.6015242",
    "District": "30"
  },
  {
    "Folio": "10675-003",
    "Name": "PIECES D'AUTO JARRY LTEE.",
    "Longitude": "-73.6076111",
    "Latitude": "45.5662973",
    "District": "30"
  },
  {
    "Folio": "10694-001",
    "Name": "STATION SERVICE LEM ENR.",
    "Longitude": "-73.6443053",
    "Latitude": "45.5861855",
    "District": "30"
  },
  {
    "Folio": "10804-001",
    "Name": "EMBELLISSEMENT D'AUTO EDMONDO.",
    "Longitude": "-73.6236959",
    "Latitude": "45.5934468",
    "District": "30"
  },
  {
    "Folio": "10894-001",
    "Name": "LE ROI DE L'ALIGNEMENT (1976) LTEE",
    "Longitude": "-73.630337",
    "Latitude": "45.5728797",
    "District": "30"
  },
  {
    "Folio": "10910-001",
    "Name": "PIECES D'AUTO MESSIER ET FRERES INC",
    "Longitude": "-73.6345443",
    "Latitude": "45.5949903",
    "District": "30"
  },
  {
    "Folio": "10927-001",
    "Name": "RADIO D'AUTO AMIENS INC.",
    "Longitude": "-73.625996",
    "Latitude": "45.5942485",
    "District": "30"
  },
  {
    "Folio": "11133-001",
    "Name": "PIECES D'AUTOS GUY (1977) INC.",
    "Longitude": "-73.6070141",
    "Latitude": "45.5663589",
    "District": "30"
  },
  {
    "Folio": "11149-003",
    "Name": "JOHN SCOTTI AUTOMOTIVE LTEE",
    "Longitude": "-73.6005162",
    "Latitude": "45.5736217",
    "District": "30"
  },
  {
    "Folio": "11149-007",
    "Name": "JOHN SCOTTI JAGUAR LANDROVER.",
    "Longitude": "-73.5986619",
    "Latitude": "45.5725688",
    "District": "30"
  },
  {
    "Folio": "11294-001",
    "Name": "LE RELAIS CHEVROLET CADILLAC",
    "Longitude": "-73.6436152",
    "Latitude": "45.5643492",
    "District": "30"
  },
  {
    "Folio": "11934-001",
    "Name": "LAPIERRE FINE MECANIQUE INC.",
    "Longitude": "-73.612646",
    "Latitude": "45.56718069",
    "District": "30"
  },
  {
    "Folio": "12068-002",
    "Name": "GARAGE BEAULIEU & HUNTLEY INC.",
    "Longitude": "-73.6431111",
    "Latitude": "45.56690529",
    "District": "30"
  },
  {
    "Folio": "13316-003",
    "Name": "U-HAUL CO. (CANADA) LTEE.",
    "Longitude": "-73.6308519",
    "Latitude": "45.5846344",
    "District": "30"
  },
  {
    "Folio": "15924-059",
    "Name": "U A P INC.",
    "Longitude": "-73.6125649",
    "Latitude": "45.5758153",
    "District": "30"
  },
  {
    "Folio": "16416-001",
    "Name": "GARAGE B.M.F. LIMITEE",
    "Longitude": "-73.6328164",
    "Latitude": "45.5806441",
    "District": "30"
  },
  {
    "Folio": "16807-001",
    "Name": "LES IMPORTATIONS GRAND PRIX INC.",
    "Longitude": "-73.6097731",
    "Latitude": "45.5693452",
    "District": "30"
  },
  {
    "Folio": "17057-001",
    "Name": "ATELIER DE MECANIQUE (1979) RM INC",
    "Longitude": "-73.6224285",
    "Latitude": "45.5958702",
    "District": "30"
  },
  {
    "Folio": "18413-001",
    "Name": "SERVICES MAGNUM INC.",
    "Longitude": "-73.6208705",
    "Latitude": "45.5958949",
    "District": "30"
  },
  {
    "Folio": "19003-001",
    "Name": "ALIGNEMENT BOUCHARD INC.",
    "Longitude": "-73.6354653",
    "Latitude": "45.5758057",
    "District": "30"
  },
  {
    "Folio": "19244-001",
    "Name": "LES INDUSTRIES KING-O-MATIC LTEE.",
    "Longitude": "-73.6288412",
    "Latitude": "45.5897006",
    "District": "30"
  },
  {
    "Folio": "19976-001",
    "Name": "LES GESTIONS LUC BOUGIE INC",
    "Longitude": "-73.6412035",
    "Latitude": "45.5688659",
    "District": "30"
  },
  {
    "Folio": "20043-001",
    "Name": "JACK AUTO MTL-NORD INC",
    "Longitude": "-73.6271234",
    "Latitude": "45.587443",
    "District": "30"
  },
  {
    "Folio": "20368-001",
    "Name": "127395 CANADA INC.",
    "Longitude": "-73.649063",
    "Latitude": "45.5832509",
    "District": "30"
  },
  {
    "Folio": "20989-001",
    "Name": "LES ENTREPRISES SEBASTIANELLI",
    "Longitude": "-73.6264132",
    "Latitude": "45.5934588",
    "District": "30"
  },
  {
    "Folio": "21296-031",
    "Name": "VANFAX.",
    "Longitude": "-73.6072471",
    "Latitude": "45.5732892",
    "District": "30"
  },
  {
    "Folio": "21523-001",
    "Name": "136984 CANADA INC.",
    "Longitude": "-73.600854",
    "Latitude": "45.5734988",
    "District": "30"
  },
  {
    "Folio": "22102-001",
    "Name": "AUTOMOBILES INTERSAVE INC.",
    "Longitude": "-73.6291506",
    "Latitude": "45.5852884",
    "District": "30"
  },
  {
    "Folio": "22108-001",
    "Name": "LES TRANSMISSIONS VINCENT INC.",
    "Longitude": "-73.626295",
    "Latitude": "45.5926255",
    "District": "30"
  },
  {
    "Folio": "22170-001",
    "Name": "CARQUEST CANADA LTEE.",
    "Longitude": "-73.6251224",
    "Latitude": "45.5901068",
    "District": "30"
  },
  {
    "Folio": "22286-001",
    "Name": "STATION DE SERVICES VITO &",
    "Longitude": "-73.623469",
    "Latitude": "45.5921148",
    "District": "30"
  },
  {
    "Folio": "22404-001",
    "Name": "P.C. MECANIQUE INC.",
    "Longitude": "-73.6034715",
    "Latitude": "45.567497",
    "District": "30"
  },
  {
    "Folio": "22864-001",
    "Name": "CARROSSERIE FRANKLIN DUBE INC.",
    "Longitude": "-73.6358281",
    "Latitude": "45.575941",
    "District": "30"
  },
  {
    "Folio": "23333-001",
    "Name": "AUTO COUNTECH ENR.",
    "Longitude": "-73.6240809",
    "Latitude": "45.59502029",
    "District": "30"
  },
  {
    "Folio": "23757-001",
    "Name": "ATELIER MECANIQUE D'AUTOMOBILES",
    "Longitude": "-73.6219129",
    "Latitude": "45.56835969",
    "District": "30"
  },
  {
    "Folio": "24683-001",
    "Name": "STATION DE SERVICE CARMINE &",
    "Longitude": "-73.6421407",
    "Latitude": "45.5808623",
    "District": "30"
  },
  {
    "Folio": "25444-001",
    "Name": "CENTRE D'AUTO ET CAMION",
    "Longitude": "-73.6234317",
    "Latitude": "45.5982243",
    "District": "30"
  },
  {
    "Folio": "25488-001",
    "Name": "CARROSSERIE CUCITI INC.",
    "Longitude": "-73.62307",
    "Latitude": "45.5950006",
    "District": "30"
  },
  {
    "Folio": "25559-001",
    "Name": "GARAGE JEAN-NOEL GILBERT ENR.",
    "Longitude": "-73.6239719",
    "Latitude": "45.5914961",
    "District": "30"
  },
  {
    "Folio": "26470-002",
    "Name": "CENTRE DE PNEUS D.M.G.",
    "Longitude": "-73.6069493",
    "Latitude": "45.5638462",
    "District": "30"
  },
  {
    "Folio": "26585-001",
    "Name": "PIECES D'AUTOS ANDRE DORE INC. ",
    "Longitude": "-73.6278796",
    "Latitude": "45.5709905",
    "District": "30"
  },
  {
    "Folio": "26728-001",
    "Name": "AUTO 4 ETOILES.",
    "Longitude": "-73.6189117",
    "Latitude": "45.5670607",
    "District": "30"
  },
  {
    "Folio": "26952-001",
    "Name": "DUBE PNEU ET MECANIQUE INC.",
    "Longitude": "-73.6372061",
    "Latitude": "45.5764812",
    "District": "30"
  },
  {
    "Folio": "26966-001",
    "Name": "MECANICENTRE MONTREAL-NORD INC.",
    "Longitude": "-73.624923",
    "Latitude": "45.5921793",
    "District": "30"
  },
  {
    "Folio": "27371-001",
    "Name": "AUTOMOBILES LORI INC.",
    "Longitude": "-73.6166169",
    "Latitude": "45.6006523",
    "District": "30"
  },
  {
    "Folio": "27375-001",
    "Name": "B.O. AUTO INC.",
    "Longitude": "-73.6184411",
    "Latitude": "45.5989335",
    "District": "30"
  },
  {
    "Folio": "27791-001",
    "Name": "DEMARREURS ET ALTERNATEURS",
    "Longitude": "-73.6233563",
    "Latitude": "45.5918061",
    "District": "30"
  },
  {
    "Folio": "28053-001",
    "Name": "PROTEKCELL INC.",
    "Longitude": "-73.972303",
    "Latitude": "45.4923709",
    "District": "30"
  },
  {
    "Folio": "28296-001",
    "Name": "GARAGE ASIABEC.",
    "Longitude": "-73.6031862",
    "Latitude": "45.567527",
    "District": "30"
  },
  {
    "Folio": "28389-001",
    "Name": "SERVICES MECANIQUE L.C.",
    "Longitude": "-73.6366218",
    "Latitude": "45.5791569",
    "District": "30"
  },
  {
    "Folio": "28435-001",
    "Name": "GARAGE MAROIS ET ROY INC.",
    "Longitude": "-73.6295217",
    "Latitude": "45.5861344",
    "District": "30"
  },
  {
    "Folio": "28544-001",
    "Name": "GARAGE ST-MICHEL 2000.",
    "Longitude": "-73.6208326",
    "Latitude": "45.566636",
    "District": "30"
  },
  {
    "Folio": "28743-001",
    "Name": "GARAGE PACIFIX.",
    "Longitude": "-73.619034",
    "Latitude": "45.5674121",
    "District": "30"
  },
  {
    "Folio": "28800-001",
    "Name": "GARAGE KIKO.",
    "Longitude": "-73.6185026",
    "Latitude": "45.5659479",
    "District": "30"
  },
  {
    "Folio": "28990-001",
    "Name": "R.A. MECANIQUE.",
    "Longitude": "-73.6335321",
    "Latitude": "45.5799896",
    "District": "30"
  },
  {
    "Folio": "29014-001",
    "Name": "AUTO PERFORMANCE P.J.F. INC.",
    "Longitude": "-73.6379092",
    "Latitude": "45.5776385",
    "District": "30"
  },
  {
    "Folio": "29066-001",
    "Name": "BRENORD FENELUS.",
    "Longitude": "-73.6339366",
    "Latitude": "45.5744006",
    "District": "30"
  },
  {
    "Folio": "29100-001",
    "Name": "VITROPLUS PIE IX.",
    "Longitude": "-73.602577",
    "Latitude": "45.5715759",
    "District": "30"
  },
  {
    "Folio": "29165-001",
    "Name": "GESTION MARCEL BRETON INC.",
    "Longitude": "-73.6432911",
    "Latitude": "45.5663493",
    "District": "30"
  },
  {
    "Folio": "29278-001",
    "Name": "GARAGE QUATRE SAISONS.",
    "Longitude": "-73.6027837",
    "Latitude": "45.5677791",
    "District": "30"
  },
  {
    "Folio": "29570-001",
    "Name": "D.S. PIECES D'AUTO ET MECANIQUE.",
    "Longitude": "-73.6306982",
    "Latitude": "45.5917307",
    "District": "30"
  },
  {
    "Folio": "29586-001",
    "Name": "MICHEL MARASCO.",
    "Longitude": "-73.6222932",
    "Latitude": "45.5944753",
    "District": "30"
  },
  {
    "Folio": "29663-001",
    "Name": "REUSINAGE PRECISION.",
    "Longitude": "-73.6279723",
    "Latitude": "45.589285",
    "District": "30"
  },
  {
    "Folio": "29808-001",
    "Name": "ST-MICHEL AUTOMOBILE LTEE.",
    "Longitude": "-73.6219031",
    "Latitude": "45.56837059",
    "District": "30"
  },
  {
    "Folio": "29839-004",
    "Name": "AUTO VALUE MONTREAL.",
    "Longitude": "-73.6171983",
    "Latitude": "45.5893569",
    "District": "30"
  },
  {
    "Folio": "29933-001",
    "Name": "SILENCIEUX QUALITE INC.",
    "Longitude": "-73.6256284",
    "Latitude": "45.5815355",
    "District": "30"
  },
  {
    "Folio": "29933-002",
    "Name": "SILENCIEUX QUALITE INC.",
    "Longitude": "-73.6326799",
    "Latitude": "45.5825076",
    "District": "30"
  },
  {
    "Folio": "29974-001",
    "Name": "SERVICE DE MECANIQUE MENDEZ.",
    "Longitude": "-73.6180335",
    "Latitude": "45.60018059",
    "District": "30"
  },
  {
    "Folio": "29992-001",
    "Name": "MARCEL LARIVIERE.",
    "Longitude": "-73.6263656",
    "Latitude": "45.5904051",
    "District": "30"
  },
  {
    "Folio": "30000-001",
    "Name": "AUTOMOBILES TOTO INC.",
    "Longitude": "-73.634106",
    "Latitude": "45.574439",
    "District": "30"
  },
  {
    "Folio": "30035-001",
    "Name": "9059-0217 QUEBEC INC.",
    "Longitude": "-73.6338983",
    "Latitude": "45.5795482",
    "District": "30"
  },
  {
    "Folio": "30045-001",
    "Name": "SAIT CARROSSERIE INC.",
    "Longitude": "-73.6203544",
    "Latitude": "45.5975002",
    "District": "30"
  },
  {
    "Folio": "30161-001",
    "Name": "GARAGE DU NORD.",
    "Longitude": "-73.6234166",
    "Latitude": "45.5927707",
    "District": "30"
  },
  {
    "Folio": "30168-001",
    "Name": "AMG AUTO.",
    "Longitude": "-73.6173486",
    "Latitude": "45.6012321",
    "District": "30"
  },
  {
    "Folio": "30232-001",
    "Name": "ERNESTO MECANICIEN D'AUTOS.",
    "Longitude": "-73.6181038",
    "Latitude": "45.6002467",
    "District": "30"
  },
  {
    "Folio": "30268-001",
    "Name": "GARAGE BAILLARGEON GIRARD.",
    "Longitude": "-73.6323862",
    "Latitude": "45.5820718",
    "District": "30"
  },
  {
    "Folio": "30329-001",
    "Name": "CENTRE D'AUTO ST-MICHEL ENR.",
    "Longitude": "-73.6129385",
    "Latitude": "45.5595448",
    "District": "30"
  },
  {
    "Folio": "30455-001",
    "Name": "GARAGE LES DEUX FRERES.",
    "Longitude": "-73.6212209",
    "Latitude": "45.5680718",
    "District": "30"
  },
  {
    "Folio": "30643-001",
    "Name": "KRISMATA AUTO INC.",
    "Longitude": "-73.6383556",
    "Latitude": "45.5725366",
    "District": "30"
  },
  {
    "Folio": "30649-001",
    "Name": "MAITRE DES CLES.",
    "Longitude": "-73.6252088",
    "Latitude": "45.5926696",
    "District": "30"
  },
  {
    "Folio": "30664-001",
    "Name": "CENTRE D'AUTO A.M. INC.",
    "Longitude": "-73.6181402",
    "Latitude": "45.6016076",
    "District": "30"
  },
  {
    "Folio": "30742-001",
    "Name": "GARAGE IMOLA INC.",
    "Longitude": "-73.623633",
    "Latitude": "45.5974803",
    "District": "30"
  },
  {
    "Folio": "30776-001",
    "Name": "DÃ‰BOSSELAGE C. L. ",
    "Longitude": "-73.6187111",
    "Latitude": "45.600341",
    "District": "30"
  },
  {
    "Folio": "30813-001",
    "Name": "ARMATURES D.N.S. 2000 INC.",
    "Longitude": "-73.6195683",
    "Latitude": "45.6018671",
    "District": "30"
  },
  {
    "Folio": "30826-001",
    "Name": "GARAGE HAISSAM.",
    "Longitude": "-73.6336548",
    "Latitude": "45.579769",
    "District": "30"
  },
  {
    "Folio": "30952-001",
    "Name": "CENTRE D'AUTO LAMONTAGNE INC.",
    "Longitude": "-73.6378479",
    "Latitude": "45.57757369",
    "District": "30"
  },
  {
    "Folio": "31070-001",
    "Name": "MECANIQUE P.A.C.O. ",
    "Longitude": "-73.6263656",
    "Latitude": "45.5904051",
    "District": "30"
  },
  {
    "Folio": "31104-001",
    "Name": "AUTO TRAMM INC.",
    "Longitude": "-73.6055224",
    "Latitude": "45.5670574",
    "District": "30"
  },
  {
    "Folio": "31104-002",
    "Name": "AUTO TRAMM INC.",
    "Longitude": "-73.6057151",
    "Latitude": "45.5671454",
    "District": "30"
  },
  {
    "Folio": "31143-002",
    "Name": "AUTO G.D. INC.",
    "Longitude": "-73.6361893",
    "Latitude": "45.5813274",
    "District": "30"
  },
  {
    "Folio": "31161-001",
    "Name": "GARAGE RENE INC.",
    "Longitude": "-73.6134687",
    "Latitude": "45.564344",
    "District": "30"
  },
  {
    "Folio": "31181-001",
    "Name": "ENGINE-LAND.",
    "Longitude": "-73.61667",
    "Latitude": "45.6028753",
    "District": "30"
  },
  {
    "Folio": "31192-001",
    "Name": "GARAGE DESPASSIONS INC.",
    "Longitude": "-73.6355372",
    "Latitude": "45.5946863",
    "District": "30"
  },
  {
    "Folio": "31205-001",
    "Name": "PNEUS JARRY.",
    "Longitude": "-73.6170708",
    "Latitude": "45.5661058",
    "District": "30"
  },
  {
    "Folio": "31358-001",
    "Name": "ROBERT DANIEL DIPLAN GUZMAN.",
    "Longitude": "-73.6209559",
    "Latitude": "45.5663275",
    "District": "30"
  },
  {
    "Folio": "31380-001",
    "Name": "CLINIQUE D'AUTOS CREMAZIE.",
    "Longitude": "-73.6029212",
    "Latitude": "45.5672886",
    "District": "30"
  },
  {
    "Folio": "31404-001",
    "Name": "SILENCIEUX GMS PIE-1X.",
    "Longitude": "-73.6259412",
    "Latitude": "45.5815195",
    "District": "30"
  },
  {
    "Folio": "31437-001",
    "Name": "CARROSSERIE ST-MICHEL INC.",
    "Longitude": "-73.6202229",
    "Latitude": "45.5676195",
    "District": "30"
  },
  {
    "Folio": "31437-002",
    "Name": "CARROSSERIE ST-MICHEL INC.",
    "Longitude": "-73.6201638",
    "Latitude": "45.5678624",
    "District": "30"
  },
  {
    "Folio": "31438-001",
    "Name": "ALLIANCE COLLISION.",
    "Longitude": "-73.6191592",
    "Latitude": "45.5968301",
    "District": "30"
  },
  {
    "Folio": "31446-001",
    "Name": "J-M GALLANT INC.",
    "Longitude": "-73.6300629",
    "Latitude": "45.6033651",
    "District": "30"
  },
  {
    "Folio": "31486-001",
    "Name": "RM AUTOMOBILE.",
    "Longitude": "-73.6213482",
    "Latitude": "45.5681276",
    "District": "30"
  },
  {
    "Folio": "31503-001",
    "Name": "GARAGE MISSOURI 2005.",
    "Longitude": "-73.6339069",
    "Latitude": "45.5740654",
    "District": "30"
  },
  {
    "Folio": "31570-001",
    "Name": "GARAGE FAYCAL.",
    "Longitude": "-73.6248397",
    "Latitude": "45.5922072",
    "District": "30"
  },
  {
    "Folio": "31618-001",
    "Name": "LES LANCEURS MICHEL VIAU INC.",
    "Longitude": "-73.614784",
    "Latitude": "45.60465079",
    "District": "30"
  },
  {
    "Folio": "31619-001",
    "Name": "AUTO RAMMAL INC.",
    "Longitude": "-73.6282966",
    "Latitude": "45.5893808",
    "District": "30"
  },
  {
    "Folio": "31621-001",
    "Name": "MAJDI RAMMAL.",
    "Longitude": "-73.6282755",
    "Latitude": "45.5893608",
    "District": "30"
  },
  {
    "Folio": "31632-001",
    "Name": "BEN & DEE-DEE INC.",
    "Longitude": "-73.6203091",
    "Latitude": "45.5972857",
    "District": "30"
  },
  {
    "Folio": "31638-001",
    "Name": "RAPIDE 3 AUTO REPARATION.",
    "Longitude": "-73.6219447",
    "Latitude": "45.5941524",
    "District": "30"
  },
  {
    "Folio": "31665-001",
    "Name": "LES PROS GARAGISTES INC.",
    "Longitude": "-73.6160541",
    "Latitude": "45.6007815",
    "District": "30"
  },
  {
    "Folio": "31679-001",
    "Name": "YVES PREVOST.",
    "Longitude": "-73.6429955",
    "Latitude": "45.5672258",
    "District": "30"
  },
  {
    "Folio": "31736-001",
    "Name": "GARAGE REA 2007.",
    "Longitude": "-73.622609",
    "Latitude": "45.5955337",
    "District": "30"
  },
  {
    "Folio": "31775-001",
    "Name": "GROUPE UPARTS.",
    "Longitude": "-73.6174348",
    "Latitude": "45.5657956",
    "District": "30"
  },
  {
    "Folio": "31820-001",
    "Name": "RADIATEURS PRESTIGE.",
    "Longitude": "-73.6341707",
    "Latitude": "45.5793487",
    "District": "30"
  },
  {
    "Folio": "31859-001",
    "Name": "CENTRE DU PNEU M.A.S. INC.",
    "Longitude": "-73.624146",
    "Latitude": "45.5911116",
    "District": "30"
  },
  {
    "Folio": "31885-002",
    "Name": "LE DOCTEUR DU PARE-BRISE.",
    "Longitude": "-73.6065421",
    "Latitude": "45.5634978",
    "District": "30"
  },
  {
    "Folio": "31895-001",
    "Name": "CENTRE DE PNEU MF.",
    "Longitude": "-73.6338533",
    "Latitude": "45.5743535",
    "District": "30"
  },
  {
    "Folio": "31907-001",
    "Name": "GARAGE AUTO ATLAS INC.",
    "Longitude": "-73.6257301",
    "Latitude": "45.5920473",
    "District": "30"
  },
  {
    "Folio": "31908-001",
    "Name": "CENTRE D'AUTO SAHARA INC.",
    "Longitude": "-73.6273621",
    "Latitude": "45.5935025",
    "District": "30"
  },
  {
    "Folio": "31958-001",
    "Name": "JOHN SCOTTI MITSUBISHI.",
    "Longitude": "-73.6005162",
    "Latitude": "45.5736217",
    "District": "30"
  },
  {
    "Folio": "31959-001",
    "Name": "SALIM AUTOS.",
    "Longitude": "-73.6333858",
    "Latitude": "45.5799899",
    "District": "30"
  },
  {
    "Folio": "31960-001",
    "Name": "GARAGE JUAN AUTO SILENCIEUX INC.",
    "Longitude": "-73.6180335",
    "Latitude": "45.60018059",
    "District": "30"
  },
  {
    "Folio": "31965-001",
    "Name": "PAUL JACOB JEAN BAPTISTE.",
    "Longitude": "-73.62634",
    "Latitude": "45.5902798",
    "District": "30"
  },
  {
    "Folio": "31975-001",
    "Name": "SILENCIEUX GALLO INC.",
    "Longitude": "-73.6340132",
    "Latitude": "45.58139",
    "District": "30"
  },
  {
    "Folio": "31981-001",
    "Name": "AUTO PRESTIGE M S INC.",
    "Longitude": "-73.6206478",
    "Latitude": "45.5873314",
    "District": "30"
  },
  {
    "Folio": "32010-001",
    "Name": "GARAGE ELMO.",
    "Longitude": "-73.6260413",
    "Latitude": "45.5910083",
    "District": "30"
  },
  {
    "Folio": "32029-001",
    "Name": "AUTO SONIC INC.",
    "Longitude": "-73.604641",
    "Latitude": "45.5658099",
    "District": "30"
  },
  {
    "Folio": "32071-001",
    "Name": "CENTRE AUTO C.M.L.",
    "Longitude": "-73.61792",
    "Latitude": "45.6002138",
    "District": "30"
  },
  {
    "Folio": "32073-001",
    "Name": "CENTRE D'AUTO MALEK.",
    "Longitude": "-73.6179417",
    "Latitude": "45.5994908",
    "District": "30"
  },
  {
    "Folio": "32077-001",
    "Name": "GARAGE DNA.",
    "Longitude": "-73.6182331",
    "Latitude": "45.6000246",
    "District": "30"
  },
  {
    "Folio": "32100-001",
    "Name": "AUTOMOBILES CHECKER AUTOSPORT INC.",
    "Longitude": "-73.6177077",
    "Latitude": "45.5665196",
    "District": "30"
  },
  {
    "Folio": "32102-001",
    "Name": "FREINS AGNA.",
    "Longitude": "-73.6190656",
    "Latitude": "45.5973675",
    "District": "30"
  },
  {
    "Folio": "32107-001",
    "Name": "IMPORTATIONS MOTEURS JAPONAIS 2008.",
    "Longitude": "-73.6271687",
    "Latitude": "45.5885373",
    "District": "30"
  },
  {
    "Folio": "32112-001",
    "Name": "CAMI AUTO INC.",
    "Longitude": "-73.6341025",
    "Latitude": "45.5838149",
    "District": "30"
  },
  {
    "Folio": "32128-001",
    "Name": "AUTOELEGANT INC.",
    "Longitude": "-73.6439615",
    "Latitude": "45.5978778",
    "District": "30"
  },
  {
    "Folio": "32172-001",
    "Name": "KANGOUROUTE.",
    "Longitude": "-73.6348072",
    "Latitude": "45.5780912",
    "District": "30"
  },
  {
    "Folio": "32186-001",
    "Name": "CENTRE MONDIAL DU MECANIQUE INC.",
    "Longitude": "-73.618393",
    "Latitude": "45.6005191",
    "District": "30"
  },
  {
    "Folio": "32217-001",
    "Name": "GARAGE 7 JOURS.",
    "Longitude": "-73.6263656",
    "Latitude": "45.5904051",
    "District": "30"
  },
  {
    "Folio": "32217-002",
    "Name": "PIECES D'AUTO 7 JOURS.",
    "Longitude": "-73.6263656",
    "Latitude": "45.5904051",
    "District": "30"
  },
  {
    "Folio": "32225-001",
    "Name": "TIMGAD EXPRESS CENTRE DE PNEU ET",
    "Longitude": "-73.6262476",
    "Latitude": "45.5904663",
    "District": "30"
  },
  {
    "Folio": "32227-001",
    "Name": "LE MARCHE DOMESTIQUE DE JAPON DE LIGNE INC.",
    "Longitude": "-73.626648",
    "Latitude": "45.590813",
    "District": "30"
  },
  {
    "Folio": "32234-001",
    "Name": "GARAGE BONPRIX INC.",
    "Longitude": "-73.6256621",
    "Latitude": "45.5930987",
    "District": "30"
  },
  {
    "Folio": "32252-001",
    "Name": "AUTO 3M.",
    "Longitude": "-73.6226906",
    "Latitude": "45.593469",
    "District": "30"
  },
  {
    "Folio": "32309-001",
    "Name": "GARAGE MECAMARIO.",
    "Longitude": "-73.6254189",
    "Latitude": "45.592031",
    "District": "30"
  },
  {
    "Folio": "32310-001",
    "Name": "CARROSSERIE GPS INC.",
    "Longitude": "-73.622546",
    "Latitude": "45.5947206",
    "District": "30"
  },
  {
    "Folio": "32327-001",
    "Name": "MICHEL LEVERT MECANIQUE AUTO INC.",
    "Longitude": "-73.6367508",
    "Latitude": "45.5744655",
    "District": "30"
  },
  {
    "Folio": "32331-001",
    "Name": "CENTRE AUTO STOP GARAGE INC.",
    "Longitude": "-73.6053055",
    "Latitude": "45.5662292",
    "District": "30"
  },
  {
    "Folio": "32350-001",
    "Name": "K M MECANIQUE INC.",
    "Longitude": "-73.6340361",
    "Latitude": "45.58163829",
    "District": "30"
  },
  {
    "Folio": "32367-001",
    "Name": "RACETTE PNEUS INC.",
    "Longitude": "-73.6210064",
    "Latitude": "45.5960861",
    "District": "30"
  },
  {
    "Folio": "32508-001",
    "Name": "WILLY MUFFLER.",
    "Longitude": "-73.6355545",
    "Latitude": "45.5812316",
    "District": "30"
  },
  {
    "Folio": "32530-001",
    "Name": "CENTRE DE TRANSMISSION C.S.R. INC.",
    "Longitude": "-73.6266517",
    "Latitude": "45.5895619",
    "District": "30"
  },
  {
    "Folio": "32613-001",
    "Name": "AUTO SELECT M.A.V. ",
    "Longitude": "-73.6266778",
    "Latitude": "45.5913647",
    "District": "30"
  },
  {
    "Folio": "32614-001",
    "Name": "VILLE SAM AUTO INC.",
    "Longitude": "-73.6204315",
    "Latitude": "45.59531459",
    "District": "30"
  },
  {
    "Folio": "32614-002",
    "Name": "VILLE SAM AUTO INC.",
    "Longitude": "-73.6201203",
    "Latitude": "45.5979754",
    "District": "30"
  },
  {
    "Folio": "32645-001",
    "Name": "MECANIQUE D & G.",
    "Longitude": "-73.6252705",
    "Latitude": "45.5927245",
    "District": "30"
  },
  {
    "Folio": "32668-001",
    "Name": "CENTRE DE PNEUS 8E AVENUE.",
    "Longitude": "-73.6209559",
    "Latitude": "45.5663275",
    "District": "30"
  },
  {
    "Folio": "32670-001",
    "Name": "FS ATELIER MECANIQUE.",
    "Longitude": "-73.6195726",
    "Latitude": "45.6011998",
    "District": "30"
  },
  {
    "Folio": "32679-001",
    "Name": "TRACTION-TECH AUTOMOTIVE.",
    "Longitude": "-73.6249794",
    "Latitude": "45.591407",
    "District": "30"
  },
  {
    "Folio": "32687-001",
    "Name": "PNEUS MAROUN INC.",
    "Longitude": "-73.6281559",
    "Latitude": "45.5894683",
    "District": "30"
  },
  {
    "Folio": "32695-001",
    "Name": "9231-5878 QUEBEC INC.",
    "Longitude": "-73.6184105",
    "Latitude": "45.6005355",
    "District": "30"
  },
  {
    "Folio": "32700-001",
    "Name": "TAMMBA.",
    "Longitude": "-73.6281195",
    "Latitude": "45.5892335",
    "District": "30"
  },
  {
    "Folio": "32703-001",
    "Name": "9072-5102 QUEBEC INC.",
    "Longitude": "-73.6045958",
    "Latitude": "45.5690883",
    "District": "30"
  },
  {
    "Folio": "32703-002",
    "Name": "OTO CREMAZIE.",
    "Longitude": "-73.6024606",
    "Latitude": "45.5678103",
    "District": "30"
  },
  {
    "Folio": "32745-001",
    "Name": "MECANIQUE JAWAD.",
    "Longitude": "-73.6281364",
    "Latitude": "45.5892279",
    "District": "30"
  },
  {
    "Folio": "32745-002",
    "Name": "MECANIQUE JAWAD FAITES VOUS MEME.",
    "Longitude": "-73.6281963",
    "Latitude": "45.5890827",
    "District": "30"
  },
  {
    "Folio": "32759-001",
    "Name": "DEBOSSELAGE KALI INC.",
    "Longitude": "-73.6293537",
    "Latitude": "45.5859477",
    "District": "30"
  },
  {
    "Folio": "32771-001",
    "Name": "GROUPE RIODIN INC.",
    "Longitude": "-73.6197569",
    "Latitude": "45.6004959",
    "District": "30"
  },
  {
    "Folio": "32779-001",
    "Name": "SAM AUTO SERVICE INC.",
    "Longitude": "-73.6337741",
    "Latitude": "45.5794655",
    "District": "30"
  },
  {
    "Folio": "32804-001",
    "Name": "AUTO MECANIQUE ASLAN.",
    "Longitude": "-73.6234795",
    "Latitude": "45.5973394",
    "District": "30"
  },
  {
    "Folio": "32827-001",
    "Name": "CENTRE DE PNEUS P.D.R. INC.",
    "Longitude": "-73.6341942",
    "Latitude": "45.5814901",
    "District": "30"
  },
  {
    "Folio": "32897-001",
    "Name": "GARAGE J.B",
    "Longitude": "-73.6183894",
    "Latitude": "45.5662175",
    "District": "30"
  },
  {
    "Folio": "32925-001",
    "Name": "JEAN MARY FRANCOIS PIERRE.",
    "Longitude": "-73.62634",
    "Latitude": "45.5902798",
    "District": "30"
  },
  {
    "Folio": "32937-001",
    "Name": "GARAGE HASSOUNA.",
    "Longitude": "-73.638071",
    "Latitude": "45.5777653",
    "District": "30"
  },
  {
    "Folio": "32948-001",
    "Name": "JDS DUMONT INC.",
    "Longitude": "-73.6191314",
    "Latitude": "45.5996955",
    "District": "30"
  },
  {
    "Folio": "32983-001",
    "Name": "ENTREPRISE STRASSE AUTOWERKS.",
    "Longitude": "-73.6437887",
    "Latitude": "45.5660605",
    "District": "30"
  },
  {
    "Folio": "33051-001",
    "Name": "GARAGE AUTO CITY LINE.",
    "Longitude": "-73.6274576",
    "Latitude": "45.58860139",
    "District": "30"
  },
  {
    "Folio": "33058-001",
    "Name": "GARAGE RHODE INC.",
    "Longitude": "-73.6325818",
    "Latitude": "45.5811042",
    "District": "30"
  },
  {
    "Folio": "33068-001",
    "Name": "GARAGE EXCELLENCE INC.",
    "Longitude": "-73.6341535",
    "Latitude": "45.5807236",
    "District": "30"
  },
  {
    "Folio": "33079-001",
    "Name": "CARROSSERIE D. BISSOO INC.",
    "Longitude": "-73.620688",
    "Latitude": "45.5978802",
    "District": "30"
  },
  {
    "Folio": "33080-001",
    "Name": "J.S. AUTO (2012) INC.",
    "Longitude": "-73.628913",
    "Latitude": "45.58575769",
    "District": "30"
  },
  {
    "Folio": "33111-001",
    "Name": "DISTRIBUTION SATISFACTION INC.",
    "Longitude": "-73.6222305",
    "Latitude": "45.5856378",
    "District": "30"
  },
  {
    "Folio": "33127-001",
    "Name": "FLAVIEN VITRE D'AUTOS.",
    "Longitude": "-73.6708534",
    "Latitude": "45.7359173",
    "District": "30"
  },
  {
    "Folio": "33160-001",
    "Name": "GARAGE SOLUTION.",
    "Longitude": "-73.605203",
    "Latitude": "45.5655497",
    "District": "30"
  },
  {
    "Folio": "33168-001",
    "Name": "CENTRE DU PNEU MD.",
    "Longitude": "-73.6261907",
    "Latitude": "45.5901124",
    "District": "30"
  },
  {
    "Folio": "33185-001",
    "Name": "JUAN CARLOS AUTO INC.",
    "Longitude": "-73.6248503",
    "Latitude": "45.5922177",
    "District": "30"
  },
  {
    "Folio": "33194-001",
    "Name": "DANIEL'S GARAGE.",
    "Longitude": "-73.6261002",
    "Latitude": "45.5932707",
    "District": "30"
  },
  {
    "Folio": "33198-001",
    "Name": "TRANSMISSION RM INC.",
    "Longitude": "-73.6163433",
    "Latitude": "45.5659192",
    "District": "30"
  },
  {
    "Folio": "33204-001",
    "Name": "CENTRE D'AUTO YASSINE.",
    "Longitude": "-73.6265525",
    "Latitude": "45.590748",
    "District": "30"
  },
  {
    "Folio": "33216-001",
    "Name": "GARAGE 13 ETOILES INC.",
    "Longitude": "-73.6204767",
    "Latitude": "45.5661269",
    "District": "30"
  },
  {
    "Folio": "33255-001",
    "Name": "ALLIANCE AUTO ",
    "Longitude": "-73.6191592",
    "Latitude": "45.5968301",
    "District": "30"
  },
  {
    "Folio": "33287-001",
    "Name": "KINO SILENCIEUX.",
    "Longitude": "-73.6212293",
    "Latitude": "45.5664515",
    "District": "30"
  },
  {
    "Folio": "33308-001",
    "Name": "GARAGE RENO CARROSSERIE. ",
    "Longitude": "-73.6067887",
    "Latitude": "45.5645831",
    "District": "30"
  },
  {
    "Folio": "33312-001",
    "Name": "GARAGE HOA.",
    "Longitude": "-73.6051595",
    "Latitude": "45.5669117",
    "District": "30"
  },
  {
    "Folio": "33486-001",
    "Name": "LE CENTRE DE L'AUTO BOUL.",
    "Longitude": "-73.6222731",
    "Latitude": "45.5929999",
    "District": "30"
  },
  {
    "Folio": "33506-001",
    "Name": "GARAGE LES FRERES VALCOURT INC.",
    "Longitude": "-73.6168148",
    "Latitude": "45.5661296",
    "District": "30"
  },
  {
    "Folio": "33512-001",
    "Name": "LE SPECIALISTE DE L'ESTHETIQUE AUTOLUXE INC.",
    "Longitude": "-73.6218227",
    "Latitude": "45.5978547",
    "District": "30"
  },
  {
    "Folio": "33514-001",
    "Name": "PNEUS MONTREAL-NORD INC.",
    "Longitude": "-73.6247819",
    "Latitude": "45.5900089",
    "District": "30"
  },
  {
    "Folio": "33533-001",
    "Name": "VOX AUTO INC.",
    "Longitude": "-73.6332539",
    "Latitude": "45.5799247",
    "District": "30"
  },
  {
    "Folio": "33534-001",
    "Name": "GARAGE BELLEVOIS ET FILS.",
    "Longitude": "-73.6265255",
    "Latitude": "45.5928421",
    "District": "30"
  },
  {
    "Folio": "33551-001",
    "Name": "FIXE CARROSSERIE",
    "Longitude": "-73.6194045",
    "Latitude": "45.567165",
    "District": "30"
  },
  {
    "Folio": "33574-001",
    "Name": "SILENCIEUX DRAGON INC.",
    "Longitude": "-73.6339366",
    "Latitude": "45.5744006",
    "District": "30"
  },
  {
    "Folio": "33604-001",
    "Name": "AUTOSOINS ST-MICHEL INC.",
    "Longitude": "-73.6053927",
    "Latitude": "45.5674087",
    "District": "30"
  },
  {
    "Folio": "33636-001",
    "Name": "AUTO M H.",
    "Longitude": "-73.6330389",
    "Latitude": "45.5824503",
    "District": "30"
  },
  {
    "Folio": "33639-001",
    "Name": "GARAGE VASMARIS-2.",
    "Longitude": "-73.6330389",
    "Latitude": "45.5824503",
    "District": "30"
  },
  {
    "Folio": "33655-001",
    "Name": "ALEX MECANIQUE.",
    "Longitude": "-73.6331706",
    "Latitude": "45.58263849",
    "District": "30"
  },
  {
    "Folio": "33662-001",
    "Name": "EXPORTATION 4RX.",
    "Longitude": "-73.6228017",
    "Latitude": "45.5942816",
    "District": "30"
  },
  {
    "Folio": "33687-001",
    "Name": "RONALD BEAUCHAMP MONTREAL-NORD",
    "Longitude": "-73.6254649",
    "Latitude": "45.5904752",
    "District": "30"
  },
  {
    "Folio": "33698-001",
    "Name": "SERVICE DE MECANIQUE D.K. ",
    "Longitude": "-73.6210584",
    "Latitude": "45.5981762",
    "District": "30"
  },
  {
    "Folio": "33721-001",
    "Name": "AUTO PEET INC.",
    "Longitude": "-73.6326799",
    "Latitude": "45.5825076",
    "District": "30"
  },
  {
    "Folio": "33729-001",
    "Name": "CENTRE DE SERVICE A&A INC.",
    "Longitude": "-73.62143",
    "Latitude": "45.5981949",
    "District": "30"
  },
  {
    "Folio": "33773-001",
    "Name": "9310-0337 QUEBEC INC.",
    "Longitude": "-73.6224266",
    "Latitude": "45.59394349",
    "District": "30"
  },
  {
    "Folio": "33782-001",
    "Name": "GARAGE MIRACLE.",
    "Longitude": "-73.633536",
    "Latitude": "45.5823744",
    "District": "30"
  },
  {
    "Folio": "33786-001",
    "Name": "GARAGE AL AMAN.",
    "Longitude": "-73.6250623",
    "Latitude": "45.5925334",
    "District": "30"
  },
  {
    "Folio": "33790-002",
    "Name": "OPTIMAL VITRE D'AUTO INC.",
    "Longitude": "-73.6213102",
    "Latitude": "45.59587639",
    "District": "30"
  },
  {
    "Folio": "33792-001",
    "Name": "SADAUTO PIECES DAUTO.",
    "Longitude": "-73.6001356",
    "Latitude": "45.5704292",
    "District": "30"
  },
  {
    "Folio": "33806-001",
    "Name": "DE VELLIS AUTO STOP INC.",
    "Longitude": "-73.6193791",
    "Latitude": "45.5794438",
    "District": "30"
  },
  {
    "Folio": "33814-001",
    "Name": "ALDO AUTO.",
    "Longitude": "-73.6063552",
    "Latitude": "45.566409",
    "District": "30"
  },
  {
    "Folio": "33825-001",
    "Name": "CHOKR PIECES D'AUTO INC.",
    "Longitude": "-73.640362",
    "Latitude": "45.5880901",
    "District": "30"
  },
  {
    "Folio": "33826-001",
    "Name": "GARAGE LUCKY.",
    "Longitude": "-73.6328058",
    "Latitude": "45.5826337",
    "District": "30"
  },
  {
    "Folio": "33828-001",
    "Name": "GARAGE LES SPECIALISTE 2015 INC.",
    "Longitude": "-73.6179702",
    "Latitude": "45.5994935",
    "District": "30"
  },
  {
    "Folio": "33831-001",
    "Name": "GAGNON STE-MARIE-THIFFAULT INC.",
    "Longitude": "-73.6027213",
    "Latitude": "45.5680319",
    "District": "30"
  },
  {
    "Folio": "33832-005",
    "Name": "ENTREPOT DE MONTREAL 1470 INC.",
    "Longitude": "-73.608015",
    "Latitude": "45.565874",
    "District": "30"
  },
  {
    "Folio": "33835-001",
    "Name": "JS AUTO TRANSFORME.",
    "Longitude": "-73.6198042",
    "Latitude": "45.597672",
    "District": "30"
  },
  {
    "Folio": "33838-001",
    "Name": "AUTO VICE.",
    "Longitude": "-73.6055478",
    "Latitude": "45.5653348",
    "District": "30"
  },
  {
    "Folio": "33852-001",
    "Name": "AUTHENTIC CENTRE DE PARE-BRISE.",
    "Longitude": "-73.6194144",
    "Latitude": "45.5672654",
    "District": "30"
  },
  {
    "Folio": "33857-001",
    "Name": "AUTO MOBILEX PNEU MOBILE INC.",
    "Longitude": "-73.5996244",
    "Latitude": "45.5828535",
    "District": "30"
  },
  {
    "Folio": "33866-001",
    "Name": "MAGIC VITRES D'AUTOS.",
    "Longitude": "-73.6284156",
    "Latitude": "45.5891659",
    "District": "30"
  },
  {
    "Folio": "33921-001",
    "Name": "MECANIQUE AUTO HK EXPERT INC.",
    "Longitude": "-73.6330588",
    "Latitude": "45.5825263",
    "District": "30"
  },
  {
    "Folio": "33939-001",
    "Name": "CENTRE D'AUTO LONDON INC.",
    "Longitude": "-73.6330389",
    "Latitude": "45.5824503",
    "District": "30"
  },
  {
    "Folio": "33952-001",
    "Name": "FIX AUTO ST-MICHEL.",
    "Longitude": "-73.6284569",
    "Latitude": "45.5720265",
    "District": "30"
  },
  {
    "Folio": "33956-001",
    "Name": "PIECES D'AUTO CPF INC.",
    "Longitude": "-73.6285707",
    "Latitude": "45.5861983",
    "District": "30"
  },
  {
    "Folio": "33970-001",
    "Name": "GARAGE ALDA.",
    "Longitude": "-73.6234795",
    "Latitude": "45.5973394",
    "District": "30"
  },
  {
    "Folio": "34007-001",
    "Name": "DISTRIBUTION STOX INC.",
    "Longitude": "-73.6072032",
    "Latitude": "45.6128504",
    "District": "30"
  },
  {
    "Folio": "34007-002",
    "Name": "DISTRIBUTION STOX INC.",
    "Longitude": "-73.6297647",
    "Latitude": "45.5846896",
    "District": "30"
  },
  {
    "Folio": "34031-001",
    "Name": "GARAGE FIX-O-FIX.",
    "Longitude": "-73.6045979",
    "Latitude": "45.5674036",
    "District": "30"
  },
  {
    "Folio": "34048-001",
    "Name": "PNEU MOBILE VIP INC.",
    "Longitude": "-73.6300074",
    "Latitude": "45.5844503",
    "District": "30"
  },
  {
    "Folio": "34081-001",
    "Name": "GARAGE SYLVESTRE.",
    "Longitude": "-73.6250919",
    "Latitude": "45.5914688",
    "District": "30"
  },
  {
    "Folio": "34098-001",
    "Name": "SOINS D'AUTO M&A.",
    "Longitude": "-73.6192528",
    "Latitude": "45.59685109",
    "District": "30"
  },
  {
    "Folio": "34103-001",
    "Name": "ISMAEL MECANIQUE.",
    "Longitude": "-73.6199178",
    "Latitude": "45.5673658",
    "District": "30"
  },
  {
    "Folio": "34112-001",
    "Name": "MODICK-PERFORMANCE.",
    "Longitude": "-73.637501",
    "Latitude": "45.6008253",
    "District": "30"
  },
  {
    "Folio": "34114-001",
    "Name": "PIECES ET MOTEUR NATIONAL.",
    "Longitude": "-73.6244861",
    "Latitude": "45.585404",
    "District": "30"
  },
  {
    "Folio": "34122-001",
    "Name": "CENTRE MECANIQUE A.M INC.",
    "Longitude": "-73.6178827",
    "Latitude": "45.6016288",
    "District": "30"
  },
  {
    "Folio": "34123-001",
    "Name": "PNEU MOBILE 640.",
    "Longitude": "-73.6258868",
    "Latitude": "45.5724252",
    "District": "30"
  },
  {
    "Folio": "34126-001",
    "Name": "VITRES TEINTEES TINT SHOP.",
    "Longitude": "-73.6326914",
    "Latitude": "45.5808308",
    "District": "30"
  },
  {
    "Folio": "34133-001",
    "Name": "LUIS MECANIQUE GARAGE.",
    "Longitude": "-73.6182345",
    "Latitude": "45.5661763",
    "District": "30"
  },
  {
    "Folio": "34139-001",
    "Name": "RB MECANIQUE MOBILE.",
    "Longitude": "-73.6317411",
    "Latitude": "45.5954121",
    "District": "30"
  },
  {
    "Folio": "34140-001",
    "Name": "1-800 RADIATEUR.",
    "Longitude": "-73.6358288",
    "Latitude": "45.5711149",
    "District": "30"
  },
  {
    "Folio": "34155-001",
    "Name": "OTO PERFORMANCE INC.",
    "Longitude": "-73.623469",
    "Latitude": "45.5921148",
    "District": "30"
  },
  {
    "Folio": "34170-001",
    "Name": "GARAGE MEKNO INC.",
    "Longitude": "-73.6260867",
    "Latitude": "45.5900218",
    "District": "30"
  },
  {
    "Folio": "34170-002",
    "Name": "FAITES LE VOUS-MEME!.",
    "Longitude": "-73.6258392",
    "Latitude": "45.590512",
    "District": "30"
  },
  {
    "Folio": "34170-003",
    "Name": "PIECES D'AUTO MEKNO",
    "Longitude": "-73.6188341",
    "Latitude": "45.59858209",
    "District": "30"
  },
  {
    "Folio": "34180-001",
    "Name": "GARAGE V.A.G. MECATECH.",
    "Longitude": "-73.6260867",
    "Latitude": "45.5900218",
    "District": "30"
  },
  {
    "Folio": "34183-001",
    "Name": "9247-2349 QUEBEC INC.",
    "Longitude": "-73.617243",
    "Latitude": "45.6040359",
    "District": "30"
  },
  {
    "Folio": "34183-002",
    "Name": "9247-2349 QUEBEC INC.",
    "Longitude": "-73.6156247",
    "Latitude": "45.5923336",
    "District": "30"
  },
  {
    "Folio": "34199-001",
    "Name": "LES ENTREPRISES JOHNNY M.",
    "Longitude": "-73.6344936",
    "Latitude": "45.57320319",
    "District": "30"
  },
  {
    "Folio": "34204-001",
    "Name": "PRECISION AUTOFIX.",
    "Longitude": "-73.621844",
    "Latitude": "45.5978837",
    "District": "30"
  },
  {
    "Folio": "34208-001",
    "Name": "GARAGE MTL 1.",
    "Longitude": "-73.6193608",
    "Latitude": "45.5997105",
    "District": "30"
  },
  {
    "Folio": "34209-001",
    "Name": "AUTO TAMBER QUEBEC INC.",
    "Longitude": "-73.6193569",
    "Latitude": "45.566604",
    "District": "30"
  },
  {
    "Folio": "34267-001",
    "Name": "SILENCIEUX WM.",
    "Longitude": "-73.607434",
    "Latitude": "45.563224",
    "District": "30"
  },
  {
    "Folio": "34283-001",
    "Name": "GARAGE AUTO LUXE MONTREAL INC.",
    "Longitude": "-73.62277",
    "Latitude": "45.5944937",
    "District": "30"
  },
  {
    "Folio": "34294-001",
    "Name": "AUTO CHABEL INC.",
    "Longitude": "-73.6214085",
    "Latitude": "45.566591",
    "District": "30"
  },
  {
    "Folio": "34318-001",
    "Name": "JEAN-RAYMOND HALL.",
    "Longitude": "-73.6260999",
    "Latitude": "45.590322",
    "District": "30"
  },
  {
    "Folio": "34321-001",
    "Name": "PERFECTO INC.",
    "Longitude": "-73.6260999",
    "Latitude": "45.590322",
    "District": "30"
  },
  {
    "Folio": "34328-001",
    "Name": "CAR TECH.",
    "Longitude": "-73.6644965",
    "Latitude": "45.6162098",
    "District": "30"
  },
  {
    "Folio": "34330-001",
    "Name": "GARAGE MONTALVO.",
    "Longitude": "-73.6258967",
    "Latitude": "45.5902625",
    "District": "30"
  },
  {
    "Folio": "34361-001",
    "Name": "OMAR BOUHDID",
    "Longitude": "-73.6260999",
    "Latitude": "45.590322",
    "District": "30"
  },
  {
    "Folio": "34373-001",
    "Name": "CENTRE D'AUTOS MESSORE INC.",
    "Longitude": "-73.6412942",
    "Latitude": "45.5690161",
    "District": "30"
  },
  {
    "Folio": "34381-001",
    "Name": "CENTRE DE PNEUS ET D'ALIGNEMENT",
    "Longitude": "-73.6232024",
    "Latitude": "45.5925115",
    "District": "30"
  },
  {
    "Folio": "34424-001",
    "Name": "GARAGE L'AMITIE.",
    "Longitude": "-73.6238951",
    "Latitude": "45.5924994",
    "District": "30"
  },
  {
    "Folio": "34432-001",
    "Name": "ML PRO MECANIQUE INC.",
    "Longitude": "-73.6270997",
    "Latitude": "45.5933843",
    "District": "30"
  },
  {
    "Folio": "34456-001",
    "Name": "PNEUS ET ALIGNEMENT FOREST.",
    "Longitude": "-73.6221097",
    "Latitude": "45.593762",
    "District": "30"
  },
  {
    "Folio": "34469-001",
    "Name": "CENTRE D'AUTO OLYMPIQUE INC.",
    "Longitude": "-73.623294",
    "Latitude": "45.6054961",
    "District": "30"
  },
  {
    "Folio": "34481-001",
    "Name": "GARAGE MILLENIA DENIS S.E.N.C.",
    "Longitude": "-73.6045165",
    "Latitude": "45.5691701",
    "District": "30"
  },
  {
    "Folio": "34483-001",
    "Name": "ABBAS DIA.",
    "Longitude": "-73.6281269",
    "Latitude": "45.588985",
    "District": "30"
  },
  {
    "Folio": "34484-001",
    "Name": "BOGHOS MANOUKIAN.",
    "Longitude": "-73.6281269",
    "Latitude": "45.588985",
    "District": "30"
  },
  {
    "Folio": "34485-001",
    "Name": "FRANCISCO WILSON.",
    "Longitude": "-73.6040038",
    "Latitude": "45.56938",
    "District": "30"
  },
  {
    "Folio": "34489-001",
    "Name": "PIERRE CHESNEL JOSEPH",
    "Longitude": "-73.6160374",
    "Latitude": "45.61625189",
    "District": "30"
  },
  {
    "Folio": "34494-001",
    "Name": "COMPET AUTO.",
    "Longitude": "-73.6169439",
    "Latitude": "45.5653322",
    "District": "30"
  },
  {
    "Folio": "34496-001",
    "Name": "AUTO PRO ELECTRIQUE.",
    "Longitude": "-73.6292157",
    "Latitude": "45.5853366",
    "District": "30"
  },
  {
    "Folio": "34502-001",
    "Name": "GARAGE KELLYSAWILL.",
    "Longitude": "-73.6298182",
    "Latitude": "45.5864512",
    "District": "30"
  },
  {
    "Folio": "34505-001",
    "Name": "GARAGE OASIS INC.",
    "Longitude": "-73.6036915",
    "Latitude": "45.567721",
    "District": "30"
  },
  {
    "Folio": "34518-001",
    "Name": "SIMPLICITY SOIN D'AUTO",
    "Longitude": "-73.6186596",
    "Latitude": "45.6012566",
    "District": "30"
  },
  {
    "Folio": "34518-002",
    "Name": "COLORPLUS CENTRE DE COLLISION",
    "Longitude": "-73.6167256",
    "Latitude": "45.6009293",
    "District": "30"
  },
  {
    "Folio": "34523-001",
    "Name": "OMEGA AUTO.",
    "Longitude": "-73.65268",
    "Latitude": "45.5690168",
    "District": "30"
  },
  {
    "Folio": "34526-001",
    "Name": "GARAGE AUTO L'ORIENT 2000 INC.",
    "Longitude": "-73.643311",
    "Latitude": "45.5668225",
    "District": "30"
  },
  {
    "Folio": "34528-001",
    "Name": "ALPHA LE CARROSIER.",
    "Longitude": "-73.605221",
    "Latitude": "45.5666482",
    "District": "30"
  },
  {
    "Folio": "34529-001",
    "Name": "HUTECH SERVICES AUTOMOBILE.",
    "Longitude": "-73.6057546",
    "Latitude": "45.5668428",
    "District": "30"
  },
  {
    "Folio": "34535-001",
    "Name": "PHOENIX ELECTRIQUE SNC",
    "Longitude": "-73.620908",
    "Latitude": "45.5978962",
    "District": "30"
  },
  {
    "Folio": "34538-001",
    "Name": "FORCE MOTEURS INC.",
    "Longitude": "-73.6430728",
    "Latitude": "45.5673335",
    "District": "30"
  },
  {
    "Folio": "34544-001",
    "Name": "AUTO DAILY",
    "Longitude": "-73.6359851",
    "Latitude": "45.5754855",
    "District": "30"
  },
  {
    "Folio": "34571-001",
    "Name": "LE PETIT PHAROAH AUTO MECANIQUE ",
    "Longitude": "-73.625998",
    "Latitude": "45.59078419",
    "District": "30"
  },
  {
    "Folio": "34573-001",
    "Name": "GARAGE PREMIUM MECANIQUE GENERALE",
    "Longitude": "-73.6112718",
    "Latitude": "45.6002127",
    "District": "30"
  },
  {
    "Folio": "34578-001",
    "Name": "MECANIQUE-AUTO CJPA S.E.N.C.",
    "Longitude": "-73.6345781",
    "Latitude": "45.5813347",
    "District": "30"
  },
  {
    "Folio": "34584-001",
    "Name": "MOHAMED MAHMOUD GAWAS",
    "Longitude": "-73.6260999",
    "Latitude": "45.590322",
    "District": "30"
  },
  {
    "Folio": "34587-001",
    "Name": "A+KIM GARAGE MECANIQUE INC.",
    "Longitude": "-73.6256774",
    "Latitude": "45.5922059",
    "District": "30"
  },
  {
    "Folio": "34592-001",
    "Name": "STATION DE SERVICE JEBICE INC.",
    "Longitude": "-73.624359",
    "Latitude": "45.569952",
    "District": "30"
  },
  {
    "Folio": "34601-001",
    "Name": "GARAGE AUTO KILOMETRE INC.",
    "Longitude": "-73.6168579",
    "Latitude": "45.5659549",
    "District": "30"
  },
  {
    "Folio": "34612-001",
    "Name": "PNEUS ST-MICHEL INC.",
    "Longitude": "-73.6057373",
    "Latitude": "45.5654174",
    "District": "30"
  },
  {
    "Folio": "34618-001",
    "Name": "MILTON RENE MORALES PEREZ",
    "Longitude": "-73.6205903",
    "Latitude": "45.5977282",
    "District": "30"
  },
  {
    "Folio": "34619-001",
    "Name": "9212-1219 QUEBEC INC.",
    "Longitude": "-73.6168065",
    "Latitude": "45.6009912",
    "District": "30"
  },
  {
    "Folio": "34628-001",
    "Name": "AUTO HITECH REPARATION.",
    "Longitude": "-73.6388433",
    "Latitude": "45.5849286",
    "District": "30"
  },
  {
    "Folio": "34639-001",
    "Name": "M.I AUTO.",
    "Longitude": "-73.6394354",
    "Latitude": "45.5932067",
    "District": "30"
  },
  {
    "Folio": "34655-001",
    "Name": "RICHARD BOUCHER.",
    "Longitude": "-73.623638",
    "Latitude": "45.6058209",
    "District": "30"
  },
  {
    "Folio": "34689-001",
    "Name": "TECHNI GLASS MONTREAL INC.",
    "Longitude": "-73.6164445",
    "Latitude": "45.6025283",
    "District": "30"
  },
  {
    "Folio": "34706-001",
    "Name": "L.T.E. AUTOS SERVICES.",
    "Longitude": "-73.6326488",
    "Latitude": "45.5811551",
    "District": "30"
  },
  {
    "Folio": "34715-001",
    "Name": "INES AUTO PRO INC.",
    "Longitude": "-73.6336735",
    "Latitude": "45.5801193",
    "District": "30"
  },
  {
    "Folio": "34732-001",
    "Name": "BOUTIQUE ENVELOPPAGE INC.",
    "Longitude": "-73.6159612",
    "Latitude": "45.6029627",
    "District": "30"
  },
  {
    "Folio": "34734-001",
    "Name": "AUTO GAGNANT.",
    "Longitude": "-73.6329191",
    "Latitude": "45.58237039",
    "District": "30"
  },
  {
    "Folio": "34736-001",
    "Name": "CORA AUTO",
    "Longitude": "-73.6433957",
    "Latitude": "45.5667536",
    "District": "30"
  },
  {
    "Folio": "34737-001",
    "Name": "ERNEST AUTO MECANIQUE GENERALE",
    "Longitude": "-73.6433957",
    "Latitude": "45.5667536",
    "District": "30"
  },
  {
    "Folio": "34772-001",
    "Name": "GARAGE SANANTONIO",
    "Longitude": "-73.6214993",
    "Latitude": "45.5665652",
    "District": "30"
  },
  {
    "Folio": "34788-001",
    "Name": "CARROSSERIE PRO NB INC.",
    "Longitude": "-73.6259544",
    "Latitude": "45.59229269",
    "District": "30"
  },
  {
    "Folio": "34798-001",
    "Name": "PNEUMECANIQUE ROME INC.",
    "Longitude": "-73.6174109",
    "Latitude": "45.56662",
    "District": "30"
  },
  {
    "Folio": "34810-001",
    "Name": "AUTO ROCO.",
    "Longitude": "-73.6294719",
    "Latitude": "45.5856045",
    "District": "30"
  },
  {
    "Folio": "34811-001",
    "Name": "GARAGE MECANIQUE AUTO REND-BEAU.",
    "Longitude": "-73.6032154",
    "Latitude": "45.56778629",
    "District": "30"
  },
  {
    "Folio": "34814-001",
    "Name": "MECANIQUE AUTO ZACK INC.",
    "Longitude": "-73.607434",
    "Latitude": "45.563224",
    "District": "30"
  },
  {
    "Folio": "34825-001",
    "Name": "MECANIQUE ESP",
    "Longitude": "-73.6341389",
    "Latitude": "45.5851748",
    "District": "30"
  },
  {
    "Folio": "34859-001",
    "Name": "GARAGE MEC-AUTO ET PLUS INC.",
    "Longitude": "-73.6203486",
    "Latitude": "45.5977617",
    "District": "30"
  },
  {
    "Folio": "34861-001",
    "Name": "9368-3753 QUEBEC INC",
    "Longitude": "-73.6442124",
    "Latitude": "45.5860354",
    "District": "30"
  },
  {
    "Folio": "34872-001",
    "Name": "AUTOS DISCOUNT.",
    "Longitude": "-73.6187614",
    "Latitude": "45.598847",
    "District": "30"
  },
  {
    "Folio": "34876-001",
    "Name": "9383-1162 QUEBEC INC.",
    "Longitude": "-73.6182659",
    "Latitude": "45.5786845",
    "District": "30"
  },
  {
    "Folio": "34890-001",
    "Name": "GARAGE DRAPEAU INC.",
    "Longitude": "-73.6269339",
    "Latitude": "45.5907646",
    "District": "30"
  },
  {
    "Folio": "34897-001",
    "Name": "GARAGE ABASS SOBH INC.",
    "Longitude": "-73.6265525",
    "Latitude": "45.590748",
    "District": "30"
  },
  {
    "Folio": "34912-001",
    "Name": "EURO AUTOS",
    "Longitude": "-73.6190438",
    "Latitude": "45.6010173",
    "District": "30"
  },
  {
    "Folio": "34920-001",
    "Name": "GARAGE S & T MÃ‰CANIQUE ",
    "Longitude": "-73.6343653",
    "Latitude": "45.5795891",
    "District": "30"
  },
  {
    "Folio": "34927-001",
    "Name": "MAGASIN CANADIAN TIRE ",
    "Longitude": "-73.6147912",
    "Latitude": "45.60737959",
    "District": "30"
  },
  {
    "Folio": "34930-001",
    "Name": "MÃ‰CANIQUE F1 INC.",
    "Longitude": "-73.6275491",
    "Latitude": "45.5902205",
    "District": "30"
  },
  {
    "Folio": "34941-001",
    "Name": "FRENEL EXPERT AUTOMOBILE INC.",
    "Longitude": "-73.6202583",
    "Latitude": "45.5974128",
    "District": "30"
  },
  {
    "Folio": "34949-001",
    "Name": "GARAGE LOUE LIFT",
    "Longitude": "-73.62634",
    "Latitude": "45.5902798",
    "District": "30"
  },
  {
    "Folio": "34957-001",
    "Name": "EMS AUTOS SERVICE",
    "Longitude": "-73.6295506",
    "Latitude": "45.5863383",
    "District": "30"
  },
  {
    "Folio": "34972-001",
    "Name": "GARAGE KIKO.",
    "Longitude": "-73.6183765",
    "Latitude": "45.5660418",
    "District": "30"
  },
  {
    "Folio": "34978-001",
    "Name": "GO CONG AUTO",
    "Longitude": "-73.6167677",
    "Latitude": "45.565937",
    "District": "30"
  },
  {
    "Folio": "34999-001",
    "Name": "VOLVO CARS SAINT-LEONARD",
    "Longitude": "-73.5985592",
    "Latitude": "45.572796",
    "District": "30"
  },
  {
    "Folio": "35000-001",
    "Name": "SCOTTI ALFA ROMEO",
    "Longitude": "-73.5986619",
    "Latitude": "45.5725688",
    "District": "30"
  },
  {
    "Folio": "35043-001",
    "Name": "DÃ‰BOSSELAGE MTL-NORD.",
    "Longitude": "-73.6261076",
    "Latitude": "45.5925293",
    "District": "30"
  },
  {
    "Folio": "35053-001",
    "Name": "CARROSSERIE KHAR YALLA INC.",
    "Longitude": "-73.6433957",
    "Latitude": "45.5667536",
    "District": "30"
  },
  {
    "Folio": "35054-001",
    "Name": "MK MAJOR ENTERPRISES INC.",
    "Longitude": "-73.6191621",
    "Latitude": "45.5578471",
    "District": "30"
  },
  {
    "Folio": "35070-001",
    "Name": "GARAGE MECANIQUE TOP-TECH",
    "Longitude": "-73.6338906",
    "Latitude": "45.5839968",
    "District": "30"
  },
  {
    "Folio": "35073-001",
    "Name": "J & L GARAGE INC.",
    "Longitude": "-73.6214024",
    "Latitude": "45.5665203",
    "District": "30"
  },
  {
    "Folio": "35083-001",
    "Name": "ARTX CANADA.",
    "Longitude": "-73.6208932",
    "Latitude": "45.5713041",
    "District": "30"
  },
  {
    "Folio": "35089-001",
    "Name": "CARROSSERIE CAR-PRESS PRO INC.",
    "Longitude": "-73.628424",
    "Latitude": "45.5931535",
    "District": "30"
  },
  {
    "Folio": "35093-001",
    "Name": "M&M SUPER AUTO.",
    "Longitude": "-73.6343038",
    "Latitude": "45.5813907",
    "District": "30"
  },
  {
    "Folio": "35096-001",
    "Name": "ATELIER DE MECANIQUE ADP.",
    "Longitude": "-73.6205772",
    "Latitude": "45.5984151",
    "District": "30"
  },
  {
    "Folio": "35102-001",
    "Name": "GARAGE AYAD.",
    "Longitude": "-73.6262687",
    "Latitude": "45.5927246",
    "District": "30"
  },
  {
    "Folio": "35103-001",
    "Name": "GARAGE AYAD.",
    "Longitude": "-73.6264085",
    "Latitude": "45.5928136",
    "District": "30"
  },
  {
    "Folio": "35105-001",
    "Name": "B.M.S. AUTO INC.",
    "Longitude": "-73.6203508",
    "Latitude": "45.5981965",
    "District": "30"
  },
  {
    "Folio": "35107-001",
    "Name": "AUTO MECANIQUE MONDIAL.",
    "Longitude": "-73.6198172",
    "Latitude": "45.5673271",
    "District": "30"
  },
  {
    "Folio": "35108-001",
    "Name": "ENTRETIEN MECANIQUE ROYAL S.E.N.C.",
    "Longitude": "-73.6213284",
    "Latitude": "45.5979647",
    "District": "30"
  },
  {
    "Folio": "35113-001",
    "Name": "9451-7042 QUEBEC INC.",
    "Longitude": "-73.620261",
    "Latitude": "45.5981092",
    "District": "30"
  },
  {
    "Folio": "35114-001",
    "Name": "P.Z. GARAGE.",
    "Longitude": "-73.6343168",
    "Latitude": "45.5816188",
    "District": "30"
  },
  {
    "Folio": "35116-001",
    "Name": "GARAGE LOS SANTOS.",
    "Longitude": "-73.6061048",
    "Latitude": "45.5661029",
    "District": "30"
  },
  {
    "Folio": "35117-001",
    "Name": "MB IDEAL AUTO.",
    "Longitude": "-73.6206505",
    "Latitude": "45.59767069",
    "District": "30"
  },
  {
    "Folio": "35132-001",
    "Name": "SYRIANA AUTO.",
    "Longitude": "-73.633832",
    "Latitude": "45.5839323",
    "District": "30"
  },
  {
    "Folio": "35135-001",
    "Name": "AUTO MAGIQUE.",
    "Longitude": "-73.60449",
    "Latitude": "45.56915799",
    "District": "30"
  },
  {
    "Folio": "35140-001",
    "Name": "AUTO 9/40.",
    "Longitude": "-73.600815",
    "Latitude": "45.5705847",
    "District": "30"
  },
  {
    "Folio": "35142-001",
    "Name": "RAHMA AUTO.",
    "Longitude": "",
    "Latitude": "",
    "District": "30"
  }
]
